[
  {
    "name": "Govt. Medical College, Srinagar",
    "latitude": 34.08492,
    "longitude": 74.79931
  },
  {
    "name": "Govt. Medical College, Jammu",
    "latitude": 32.736285,
    "longitude": 74.854302
  },
  {
    "name": "Govt. Medical College, Anantnag",
    "latitude": 33.72384,
    "longitude": 75.1527
  },
  {
    "name": "Govt. Medical College, Baramulla",
    "latitude": 34.20412,
    "longitude": 74.36496
  },
  {
    "name": "Govt. Medical College, Doda",
    "latitude": 33.14916,
    "longitude": 75.54746
  },
  {
    "name": "Govt. Medical College, Kathua",
    "latitude": 32.39032,
    "longitude": 75.518204
  },
  {
    "name": "Govt. Medical College, Handwara",
    "latitude": 34.4091808,
    "longitude": 74.2891898
  },
  {
    "name": "Govt. Medical College, Rajouri",
    "latitude": 33.371288,
    "longitude": 74.315506
  },
  {
    "name": "Govt. Medical College, Udhampur",
    "latitude": 33.0,
    "longitude": 75.16667
  },
  {
    "name": "AIIMS, Vijaypur (Jammu)",
    "latitude": 32.569301,
    "longitude": 75.013
  },
  {
    "name": "Abdul Ahad Azad Memorial College, Bemina",
    "latitude": 34.08,
    "longitude": 74.779
  },
  {
    "name": "Amar Singh College, Srinagar",
    "latitude": 34.05982,
    "longitude": 74.8076
  },
  {
    "name": "Bibi Halima College of Nursing and Medical Technology, Srinagar",
    "latitude": 34.08667,
    "longitude": 74.79583
  },
  {
    "name": "GGM Science College, Jammu",
    "latitude": 32.7357,
    "longitude": 74.8691
  },
  {
    "name": "Govt. M.A.M College, Jammu",
    "latitude": 32.7113,
    "longitude": 74.8641
  },
  {
    "name": "Islamia College of Science & Commerce, Srinagar",
    "latitude": 34.13393,
    "longitude": 74.835926
  },
  {
    "name": "Gandhi Memorial College, Srinagar",
    "latitude": 34.08943,
    "longitude": 74.81095
  },
  {
    "name": "SKUAST Srinagar (Sher-e-Kashmir University of Agricultural Sciences and Technology)",
    "latitude": 34.12001,
    "longitude": 74.82642
  },
  {
    "name": "Central University of Jammu",
    "latitude": 32.6343363,
    "longitude": 75.0107522
  },
  {
    "name": "Cluster University, Srinagar",
    "latitude": 34.0618,
    "longitude": 74.8081
  },
  {
    "name": "Cluster University, Jammu",
    "latitude": 32.72965,
    "longitude": 74.80659
  },
  {
    "name": "Directorate of Distance Education, University of Jammu",
    "latitude": 32.7357,
    "longitude": 74.86911
  },
  {
    "name": "Shri Mata Vaishno Devi University, Katra",
    "latitude": 32.94,
    "longitude": 74.954
  },
  {
    "name": "Government College of Engineering and Technology, Jammu",
    "latitude": 32.7893,
    "longitude": 74.8596
  }
]